City_ID,City,Country,Max Temp,Current Description,Lat,Lng,Hotel Name
0,Ushuaia,AR,35.26,light intensity drizzle,-54.8,-68.3,Albatross Hotel
3,Punta Arenas,CL,33.91,few clouds,-53.15,-70.9167,Hotel Hain
4,Novaya Mayna,RU,60.22,clear sky,54.15,49.75,
5,Kiunga,PG,77.67,overcast clouds,-6.1219,141.2906,Airport Lodge Kiunga
6,Cape Town,ZA,57.38,broken clouds,-33.9258,18.4232,"Radisson Blu Hotel Waterfront, Cape Town"
7,Ratlam,IN,76.84,overcast clouds,23.3167,75.0667,Hotel Sagar Castle
9,Port Hardy,CA,57.38,light rain,50.6996,-127.4199,Airport Inn-Port Hardy
10,Tasiilaq,GL,42.96,scattered clouds,65.6145,-37.6368,The Red House
11,Rikitea,PF,72.57,scattered clouds,-23.1203,-134.9692,People ThankYou
12,Synya,RU,62.92,overcast clouds,65.3718,58.0387,
13,Provideniya,RU,60.91,clear sky,64.3833,-173.3,
14,Albany,US,75.61,clear sky,42.6001,-73.9662,
15,Puerto Ayora,EC,70.56,few clouds,-0.7393,-90.3518,Finch Bay Galapagos Hotel
16,Avarua,CK,77.05,overcast clouds,-21.2078,-159.775,Paradise Inn
18,Newport,GB,68.77,overcast clouds,51.5877,-2.9984,ibis budget Newport
19,Lagoa,PT,73.99,overcast clouds,39.05,-27.9833,Casa Das Faias
20,Poum,NC,74.93,clear sky,-20.2333,164.0167,
22,Bluff,NZ,44.8,scattered clouds,-46.6,168.3333,Bluff Homestead - Guesthouse & Campervan Park
23,San Jeronimo,PE,52.47,overcast clouds,-11.9472,-75.2829,Tuki Llajta Pueblo Bonito Eco Lodge
24,Padang,ID,77.05,overcast clouds,-0.9492,100.3543,Mercure Padang
25,Kautokeino,NO,49.84,overcast clouds,69.0125,23.0412,Thon Hotel Kautokeino
26,Jalu,LY,78.51,clear sky,29.0331,21.5482,صاحبة الفخامة
27,Solna,SK,62.64,clear sky,49.2231,18.7394,Holiday Inn Žilina
28,Dikson,RU,43.79,overcast clouds,73.5069,80.5464,
30,Jumla,NP,65.3,overcast clouds,29.2747,82.1838,Royal Garden Hotel
31,Hobart,AU,58.26,light rain,-42.8794,147.3294,St Ives Hobart Accommodation Tasmania
32,Barrow,US,53.98,overcast clouds,71.2906,-156.7887,King Eider Inn
33,Port Elizabeth,ZA,61.32,clear sky,-33.918,25.5701,39 On Nile Guest House
34,Gat,IL,79.39,clear sky,31.61,34.7642,OlusHome
35,New Norfolk,AU,57.92,overcast clouds,-42.7826,147.0587,The Shingles Riverside Cottages
36,Phalaborwa,ZA,60.08,clear sky,-23.943,31.1411,Bothabelo Bed and Breakfast
37,Busselton,AU,53.4,overcast clouds,-33.65,115.3333,Observatory Guest House
41,Rabo De Peixe,PT,67.51,few clouds,37.8,-25.5833,Quinta das Giestas
42,Stromness,GB,55.87,overcast clouds,58.965,-3.296,The Old Smokery
43,Awjilah,LY,78.37,clear sky,29.1081,21.2869,المنزل
44,Yellowknife,CA,59.95,few clouds,62.456,-114.3525,The Explorer Hotel
45,Damietta,EG,77.9,clear sky,31.4165,31.8133,SULIMAN INN
46,Dunedin,NZ,54.57,scattered clouds,-45.8742,170.5036,Scenic Hotel Southern Cross
47,Norman Wells,CA,66.24,thunderstorm with rain,65.282,-126.8329,Heritage Hotel
48,Starominskaya,RU,68.81,scattered clouds,46.53,39.0497,Niva
49,Saint-Philippe,RE,65.21,light rain,-21.3585,55.7679,Le four à pain
50,Tuktoyaktuk,CA,46.38,overcast clouds,69.4541,-133.0374,End of The Road Ltd.
52,Nyurba,RU,70.18,few clouds,63.2842,118.3319,"Гостиница ""Comfort"""
53,Severo-Kurilsk,RU,56.57,few clouds,50.6789,156.125,Kak Doma
54,Itarema,BR,77.86,light rain,-2.9248,-39.9167,"Sea Lounge! Bar, Club & Restaurant"
55,Richards Bay,ZA,62.2,clear sky,-28.783,32.0377,BON Hotel Waterfront Richards Bay
56,Huarmey,PE,62.8,broken clouds,-10.0681,-78.1522,Hotel Miramar
57,Takoradi,GH,71.87,clear sky,4.8845,-1.7554,Raybow International Hotel
58,Falun,SE,56.21,overcast clouds,60.6036,15.626,First Hotel Grand
59,Meulaboh,ID,77.02,moderate rain,4.1363,96.1285,Kost Pria
60,Balti,MD,61.23,clear sky,47.7617,27.9289,Apartment in Balti
61,Jamestown,US,64.18,clear sky,42.097,-79.2353,Hampton Inn & Suites Jamestown
62,Aksu,CN,77.63,overcast clouds,41.1231,80.2644,Pudong Holiday Hotel
63,Torbay,CA,65.57,overcast clouds,47.6666,-52.7314,Gallows Cove
64,Odienne,CI,69.21,light rain,9.51,-7.5692,Oustaz Vame DIAKITE
67,Sovetskiy,RU,61.81,clear sky,61.3614,63.5842,Apartment on Kievskaya 29
68,Clyde River,CA,39.43,overcast clouds,70.4692,-68.5914,Qamaq Hotel
70,Bredasdorp,ZA,48.99,few clouds,-34.5322,20.0403,Bredasdorp Country Manor
72,Souillac,MU,66.58,scattered clouds,-20.5167,57.5167,Shanti Maurice Resort & Spa
73,Tiksi,RU,40.3,overcast clouds,71.6872,128.8694,Arktika
74,Ponta Do Sol,PT,70.43,few clouds,32.6667,-17.1,Hotel do Campo
75,Kaitangata,NZ,51.73,scattered clouds,-46.2817,169.8464,Kaitangata Motor Camp
76,Aberdeen,GB,61.54,broken clouds,57.1437,-2.0981,Premier Inn Aberdeen City Centre hotel
77,Lompoc,US,78.94,overcast clouds,34.6391,-120.4579,"Holiday Inn Express Lompoc, an IHG Hotel"
80,Eldorado,BR,68.11,clear sky,-23.7869,-54.2836,Villa Verde Hotel
81,Tilichiki,RU,60.48,clear sky,60.4667,166.1,
82,Port Hedland,AU,73.45,scattered clouds,-20.3167,118.5667,The Esplanade Hotel
83,Coruripe,BR,73.45,light rain,-10.1256,-36.1756,Pousada e Hotel Litoral Sul
86,Fortuna,US,67.93,broken clouds,40.5982,-124.1573,Super 8 by Wyndham Fortuna
87,Arkadak,RU,60.57,scattered clouds,51.9326,43.4978,Khoper
88,Mataura,NZ,44.47,broken clouds,-46.1927,168.8643,Ellie's Villa
90,Mandalgovi,MN,77.59,few clouds,45.7625,106.2708,В.Ганбат
92,Goderich,CA,62.91,clear sky,43.7501,-81.7165,Harmony Inn
93,Faanui,PF,78.66,few clouds,-16.4833,-151.75,Bora-Bora Pearl Beach Resort & Spa
94,Fort Nelson,CA,56.79,thunderstorm with light rain,58.8053,-122.7002,The Fort Nelson Hotel
95,Ilulissat,GL,48.22,overcast clouds,69.2167,-51.1,Hotel Arctic
96,Nchelenge,ZM,61.97,clear sky,-9.3451,28.734,KD Travellers Home
97,Barra Da Estiva,BR,59.32,clear sky,-13.6261,-41.3269,Pousada Central
98,Hami,CN,78.46,clear sky,42.8,93.45,Laoyutang Resort
100,Namibe,AO,58.01,scattered clouds,-15.1961,12.1522,Hotel Chik Chik Namibe
102,Caravelas,BR,69.06,clear sky,-17.7125,-39.2481,Pousada dos Navegantes
103,Englehart,CA,56.62,scattered clouds,47.8169,-79.8664,Englehart Motel & Restaurant
105,Marsa Matruh,EG,78.46,clear sky,31.3525,27.2453,Beau Site
106,Mahebourg,MU,66.25,clear sky,-20.4081,57.7,Shandrani Beachcomber Resort & Spa
108,Brokopondo,SR,77.61,light rain,4.75,-55.1667,Matu Island
109,Ancud,CL,45.23,overcast clouds,-41.8697,-73.8203,Hotel Arena Gruesa
110,Bethel,US,77.63,clear sky,41.3712,-73.414,Courtyard by Marriott Danbury
111,Bukama,CD,70.32,clear sky,-9.2,25.85,
112,Diffa,NE,73.08,broken clouds,13.3154,12.6113,ProDAF/Diffa
113,Miandrivazo,MG,67.1,clear sky,-19.5167,45.4667,Hôtel Arc En Ciel Miandrivazo
114,Hermanus,ZA,48.79,clear sky,-34.4187,19.2345,Misty Waves Boutique Hotel
115,East London,ZA,66.13,broken clouds,-33.0153,27.9116,Tu Casa
116,Saint-Augustin,CA,62.53,broken clouds,51.226,-58.6502,
117,Santa Maria Del Oro,MX,76.77,broken clouds,25.9333,-105.3667,Hotel Palacio Del Sol
118,Bay Roberts,CA,66.33,broken clouds,47.5999,-53.2648,Stonewall Inn
119,Okhotsk,RU,61.86,overcast clouds,59.3833,143.3,
120,Saskylakh,RU,46.17,overcast clouds,71.9167,114.0833,
121,Kutum,SD,72.18,light rain,14.2,24.6667,Dibbo areaمنطقة دبو
122,Tolaga Bay,NZ,60.55,overcast clouds,-38.3667,178.3,Tolaga Bay Motel
123,Maniitsoq,GL,43.09,overcast clouds,65.4167,-52.9,Hotel Heilmann Lyberth
124,Atuona,PF,77.34,few clouds,-9.8,-139.0333,Villa Enata
125,Castro,BR,58.08,clear sky,-24.7911,-50.0119,CHACARA BAILLY
126,Iqaluit,CA,42.53,broken clouds,63.7506,-68.5145,Frobisher Inn
127,Deputatskiy,RU,49.8,overcast clouds,69.3,139.9,Baza Otdykha
129,Port Lincoln,AU,62.04,clear sky,-34.7333,135.8667,Port Lincoln Hotel
130,Belmonte,BR,70.52,clear sky,-15.8631,-38.8828,Pousada Monte Carmelo O Pão
131,Carnarvon,AU,67.87,broken clouds,-24.8667,113.6333,Hospitality Carnarvon
132,Derzhavinsk,KZ,64.98,broken clouds,51.1,66.3167,Ooo.khim Baza
133,Port Macquarie,AU,65.89,scattered clouds,-31.4333,152.9167,Rydges Port Macquarie
134,Erzin,TR,76.66,broken clouds,36.9559,36.2,Artemis Otel
135,Tame,CO,71.58,overcast clouds,6.461,-71.73,Hospedaje Santa Ana
136,Suntar,RU,72.34,broken clouds,62.1444,117.6319,Гостевая квартира
137,Oudtshoorn,ZA,59.31,broken clouds,-33.5907,22.2014,Earthbound Guest House
139,Port Alfred,ZA,66.2,clear sky,-33.5906,26.891,The Halyards Hotel
140,Knysna,ZA,58.91,few clouds,-34.0363,23.0471,Protea Hotel by Marriott Knysna Quays
141,Lebu,CL,46.45,clear sky,-37.6167,-73.65,Hostal Las Lilas
142,Ballina,AU,72.01,broken clouds,-28.8667,153.5667,Ramada Hotel & Suites by Wyndham Ballina Byron
143,Oster,UA,59.29,overcast clouds,50.9506,30.8823,Подвал О-Сану
145,Bismarck,US,76.06,clear sky,46.8083,-100.7837,Bismarck Hotel and Conference Center
147,Maldonado,UY,54.23,overcast clouds,-34.6667,-54.9167,La Cimarrona
148,Tabou,CI,74.86,overcast clouds,4.423,-7.3528,hotêl doufoulougou
149,Cabedelo,BR,74.07,few clouds,-6.9811,-34.8339,Pousada Camboinha
150,Egvekinot,RU,57.96,scattered clouds,66.3167,-179.1667,
151,Vila Velha,BR,73.35,scattered clouds,-20.3297,-40.2925,Hotel Vitória Palace
152,Chokurdakh,RU,56.61,overcast clouds,70.6333,147.9167,
154,Plavinas,LV,56.03,broken clouds,56.6178,25.7255,Route 68
156,Evensk,RU,52.9,light rain,61.95,159.2333,
157,Mago,RU,72.97,broken clouds,53.2514,140.1822,
158,Bognor Regis,GB,66.97,broken clouds,50.7821,-0.6798,Royal Norfolk Hotel
159,Leningradskiy,RU,49.64,overcast clouds,69.3833,178.4167,Gostinitsa
161,Tshela,CD,67.42,broken clouds,-4.9833,12.9333,Hotel Mirador
162,Codrington,AU,59.54,scattered clouds,-38.2667,141.9667,Codrington Gardens Bed And Breakfast
164,Kaunas,LT,46.58,fog,54.9,23.9,Amberton Cozy Hotel Kaunas
167,Broken Hill,AU,72.52,clear sky,-31.95,141.4333,Royal Exchange Hotel
168,Yarmouth,US,77.47,clear sky,41.7057,-70.2286,Blue Rock Resort
171,Bayanday,RU,65.88,overcast clouds,53.0661,105.5139,Zhemchuzhina Baykala
173,Inhambane,MZ,62.58,few clouds,-23.865,35.3833,Oceano
175,Nurlat,RU,59.5,clear sky,54.4277,50.8051,Gostinitsa Zhiguli
176,Vestmannaeyjar,IS,48.2,scattered clouds,63.4427,-20.2734,Glamping & Camping
177,Arraial Do Cabo,BR,69.33,clear sky,-22.9661,-42.0278,Pousada Porto Praia
178,Buturlinovka,RU,65.41,light rain,50.8239,40.6092,Отель Охотник
179,Carrickfergus,GB,61.56,broken clouds,54.7158,-5.8058,Premier Inn Carrickfergus hotel
180,Mar Del Plata,AR,55.09,mist,-38.0023,-57.5575,Gran Hotel Mar del Plata
181,Malakal,SS,68.07,overcast clouds,9.5334,31.6605,Nile Palace Hotel
182,Kruisfontein,ZA,57.16,clear sky,-34.0033,24.7314,Oyster Bay House Rental
183,Olafsvik,IS,47.7,broken clouds,64.8945,-23.7142,Hotel Olafsvik
184,Litovko,RU,78.57,scattered clouds,49.2361,135.1742,
186,Vila Franca Do Campo,PT,68.41,broken clouds,37.7167,-25.4333,Pestana Bahia Praia
187,Ribeira Grande,PT,75.24,light rain,38.5167,-28.7,Quinta da Meia Eira
188,Naron,ES,70.03,broken clouds,43.5167,-8.1528,Marcial
189,Paso De Los Toros,UY,55.65,broken clouds,-32.8167,-56.5167,Complejo Isabelino
190,Celendin,PE,55.35,few clouds,-6.8703,-78.1517,Villa Madrid
192,Srednekolymsk,RU,60.48,overcast clouds,67.45,153.6833,
193,Esso,RU,51.46,light rain,55.9333,158.7,Paramushir Tur
194,Qaanaaq,GL,44.29,few clouds,77.484,-69.3632,Qaanaaq Hotel
195,Nikolskoye,RU,58.8,scattered clouds,59.7035,30.7861,Tourist House - Sablino
198,Thompson,CA,54.64,overcast clouds,55.7435,-97.8558,Burntwood Hotel
200,Assiniboia,CA,71.49,clear sky,49.6334,-105.9845,Canalta Hotel Assiniboia
201,Tura,IN,76.5,overcast clouds,25.5198,90.2201,Hotel RIKMAN Continental
202,Pareora,NZ,62.19,clear sky,-44.4871,171.2132,
204,La Baule-Escoublac,FR,65.86,clear sky,47.2922,-2.364,Hôtel Barrière Le Royal La Baule
205,Vigrestad,NO,62.96,overcast clouds,58.5667,5.7,Brusand Camping
206,Mattru,SL,70.79,broken clouds,7.6244,-11.8332,"Mondkor Town, Bagbo Chiefdom, Bo District"
207,Vaitape,PF,78.64,clear sky,-16.5167,-151.75,Conrad Bora Bora Nui
208,Roma,US,68.95,clear sky,43.2128,-75.4557,Wingate By Wyndham Rome
209,Dongsheng,CN,79.59,overcast clouds,39.8161,109.9776,Crowne Plaza Ordos
210,Shache,CN,72.72,overcast clouds,38.4167,77.2406,Delong Hotel
211,Nampula,MZ,64.35,broken clouds,-15.1165,39.2666,Ruby Backpackers
212,Najran,SA,74.64,broken clouds,17.4924,44.1277,محمد هادي ال فطيح
213,Lavrentiya,RU,58.33,few clouds,65.5833,-171.0,
217,Aquin,HT,78.3,scattered clouds,18.2833,-73.4,Asheev Beach
218,Nigran,ES,68.65,clear sky,42.1415,-8.8066,Hotel Holiday
219,Fairbanks,US,68.0,broken clouds,64.8378,-147.7164,Westmark Fairbanks Hotel & Conference Center
220,Tuatapere,NZ,51.39,broken clouds,-46.1333,167.6833,Ron and Tony's Bed & Breakfast
222,Smithers,CA,60.98,overcast clouds,54.7804,-127.1743,"Prestige Hudson Bay Lodge, Premier Collection"
223,Sao Filipe,CV,77.36,scattered clouds,14.8961,-24.4956,Hotel Xaguate
224,Almeirim,BR,74.14,broken clouds,-1.5233,-52.5817,Ricácio Hotel
225,Cherskiy,RU,50.72,overcast clouds,68.75,161.3,Gostinitsa
227,Grindavik,IS,46.9,broken clouds,63.8424,-22.4338,Northern Light Inn & Max's Restaurant
228,Luanda,AO,63.73,clear sky,-8.8368,13.2343,EPIC SANA Luanda
230,Shibetsu,JP,59.7,light intensity drizzle,43.659,145.132,Hotel Kawabata Shibetsu
231,Zhangye,CN,74.34,broken clouds,38.9342,100.4517,Zhangye Lvzhou Holiday Inn
232,Ahipara,NZ,62.55,overcast clouds,-35.1667,173.1667,Ahipara Holiday Park
233,Rocha,UY,53.55,overcast clouds,-34.4833,-54.3333,Hotel Arrarte
236,Rivadavia,AR,52.2,clear sky,-33.1905,-68.4608,Posada Del Fin Del Mundo
237,Makhinjauri,GE,71.46,clear sky,41.6739,41.694,Golden Anchor
238,Yelovo,RU,59.22,clear sky,57.0538,54.9207,
239,Pokhara,NP,73.65,overcast clouds,28.2333,83.9833,OYO 170 Hotel View Point
240,Hamilton,US,78.58,clear sky,39.1834,-84.5333,Six Acres Bed & Breakfast
242,San Vicente,AR,62.02,clear sky,-26.6167,-54.1333,Complejo Turístico Farelluk
244,Te Anau,NZ,48.88,broken clouds,-45.4167,167.7167,Kingsgate Hotel Te Anau
245,Ecoporanga,BR,64.54,clear sky,-18.3733,-40.8306,Hotel Bar e Restaurante do Dico
246,Matagami,CA,54.45,clear sky,49.7502,-77.6328,Motel Le Caribou
248,Bobo Dioulasso,BF,71.74,overcast clouds,11.1771,-4.2979,IBA Hotel
249,Torrington,US,75.79,clear sky,41.8007,-73.1212,The Yankee Pedlar Inn
250,Khatanga,RU,47.46,overcast clouds,71.9667,102.5,"""Khatanga"""
251,Touros,BR,75.11,clear sky,-5.1989,-35.4608,INN NEW HORIZON
252,Barranca,PE,60.66,broken clouds,-10.75,-77.7667,El Olivar Hospedaje
253,Klaksvik,FO,49.12,overcast clouds,62.2266,-6.589,Airbnb rooms
255,Peniche,PT,68.29,overcast clouds,39.3558,-9.3811,Hotel Star inn Peniche
256,Visby,SE,63.82,overcast clouds,57.6409,18.296,Best Western Solhem Hotel Visby
257,Mount Gambier,AU,58.91,broken clouds,-37.8333,140.7667,The Commodore
260,Karratha,AU,70.5,clear sky,-20.7377,116.8463,ibis Styles Karratha
261,Santa Cruz,BO,78.26,broken clouds,-17.8,-63.1667,Aviador Hotel Boutique
263,Vanavara,RU,57.38,overcast clouds,60.34,102.2797,
265,Tahoua,NE,78.87,overcast clouds,14.8888,5.2692,Bungalows Guesthouse
266,Axim,GH,72.14,clear sky,4.8699,-2.2405,Axim Beach Resort And Spa
267,Santarem,BR,77.13,few clouds,-2.4431,-54.7083,Hotel Imperador
268,Seabra,BR,59.02,clear sky,-12.4186,-41.7703,Cambuí Hotel
269,Verkhoyansk,RU,52.48,overcast clouds,67.5447,133.385,
272,Ust-Tsilma,RU,61.79,overcast clouds,65.441,52.1498,U Praskov'i
273,Acajutla,SV,76.77,moderate rain,13.5928,-89.8275,Laureles
274,Chilca,PE,60.31,broken clouds,-12.5211,-76.7372,Playa Punta Yaya - Las Salinas
275,Vardo,NO,51.78,overcast clouds,70.3705,31.1107,Vardø Hotel AS
277,Le Port,RE,65.61,clear sky,-20.9373,55.2919,KORBEY D'OR OUEST
279,Whitecourt,CA,63.41,broken clouds,54.1502,-115.6855,Super 8 by Wyndham Whitecourt
280,Airai,TL,73.17,overcast clouds,-8.9266,125.4092,
281,Muravlenko,RU,62.35,clear sky,63.7898,74.523,Hostel Rus Muravlenko
283,Porto Santo,PT,68.38,broken clouds,33.072,-16.3415,Hotel Porto Santo & Spa
285,Valparaiso,CL,53.47,clear sky,-33.0393,-71.6273,Hotel Ultramar
288,Hervey Bay,AU,71.02,broken clouds,-25.2986,152.8535,Shelly Bay Resort
289,Chuy,UY,55.22,overcast clouds,-33.6971,-53.4616,Nuevo Hotel Plaza
290,Marfino,RU,62.85,clear sky,55.7028,37.3822,Nemchinovka-Park
291,Kodiak,US,67.51,clear sky,57.79,-152.4072,Best Western Kodiak Inn
292,Larsnes,NO,61.0,light rain,62.2028,5.5773,Liset Feriesenter AS
295,Kamyshla,RU,60.35,clear sky,54.1169,52.1426,Дом 100 м.кв. на трассе М5
297,Cabinda,AO,69.53,broken clouds,-5.55,12.2,Hotel Maiombe
298,Pemba,MZ,68.7,broken clouds,-12.974,40.5178,Guesthouse Samotina
300,Lluta,PE,48.18,scattered clouds,-16.0147,-72.0142,
301,Torbat-E Jam,IR,75.25,clear sky,35.244,60.6225,White building
302,Mandera,KE,75.67,scattered clouds,3.9366,41.867,Red Sea Resort & Suites Mandera County
303,La Ronge,CA,56.37,overcast clouds,55.1001,-105.2842,Northland Motor Hotel
304,Coihaique,CL,37.35,clear sky,-45.5752,-72.0662,Diego De Almagro Coyhaique
305,Constitucion,CL,47.59,clear sky,-35.3333,-72.4167,Hotel Boutique Las Azucenas
307,Coffs Harbour,AU,73.13,broken clouds,-30.3,153.1333,Aquajet Motel
308,Rumonge,BI,70.65,few clouds,-3.9736,29.4386,Kwetu Guest House
309,Isla Vista,US,79.16,clear sky,34.4133,-119.861,Best Western Plus South Coast Inn
310,Guasdualito,VE,71.62,broken clouds,7.2424,-70.7324,Hotel Cuibas
311,Sitka,US,57.09,light rain,57.0531,-135.33,Westmark Sitka
312,College,US,67.98,broken clouds,64.8569,-147.8028,Pike's Waterfront Lodge
313,Los Llanos De Aridane,ES,67.75,broken clouds,28.6585,-17.9182,Valle Aridane
314,Santa Elena,EC,68.61,broken clouds,-2.2333,-80.85,HOTEL CISNE II
315,Longyearbyen,SJ,48.04,light rain,78.2186,15.6401,"Radisson Blu Polar Hotel, Spitsbergen"
317,Dolores,AR,50.67,light rain,-36.3132,-57.6792,Apart Hotel - Arianos
319,Ankazoabo,MG,58.6,clear sky,-22.2833,44.5167,ENCEIN BUREAU CISCO
320,Upernavik,GL,44.51,overcast clouds,72.7868,-56.1549,Café de Upernavik
321,De-Kastri,RU,60.57,overcast clouds,51.4667,140.7833,Somon Hotel
322,Pevek,RU,38.16,light rain,69.7008,170.3133,Severnoye Zoloto
323,Nikolayevka,RU,60.98,clear sky,53.1257,47.2041,"Hotel ""Prestige"""
324,Necochea,AR,51.1,overcast clouds,-38.5473,-58.7368,dyd -mar Hotel
326,Bambous Virieux,MU,66.22,few clouds,-20.3428,57.7575,Casa Tia Villa
327,Saint-Francois,FR,60.24,clear sky,46.4154,3.9054,Manoir Du Bonheur
328,Sao Felix Do Xingu,BR,74.1,clear sky,-6.6447,-51.995,Rio Xingu Camping
329,Georgetown,MY,76.95,scattered clouds,5.4112,100.3354,Cititel Penang
330,Quatre Cocos,MU,66.09,scattered clouds,-20.2078,57.7625,Sunrise Attitude Hotel
331,Hirschaid,DE,65.41,scattered clouds,49.8194,10.9908,CENTER HOTEL DRIVE INN
332,Narsaq,GL,46.62,few clouds,60.9167,-46.05,Sleep In Narsaq
334,Lasa,IT,60.37,few clouds,46.6166,10.7002,Pension Feldgärtenhof
337,Bayreuth,DE,65.39,few clouds,49.9481,11.5783,Hotel Bayerischer Hof
338,Sinnamary,GF,78.17,heavy intensity rain,5.3833,-52.95,ALETHEIA Appartement Sinnamary
339,Bandarbeyla,SO,77.04,clear sky,9.4942,50.8122,JABIR HOTEL
341,Oktyabrskiy,RU,59.45,clear sky,54.4815,53.471,Гостиница Октябрьская
344,Nanortalik,GL,45.14,few clouds,60.1432,-45.2371,Hotel Kap Farvel
345,Yar-Sale,RU,61.68,overcast clouds,66.8333,70.8333,Yalemd
346,Wattegama,LK,75.99,overcast clouds,6.7989,81.4808,
347,Flagstaff,US,78.6,scattered clouds,35.1981,-111.6513,Drury Inn & Suites Flagstaff
348,Vao,NC,72.28,broken clouds,-22.6667,167.4833,Hotel Kou-Bugny
349,Lodwar,KE,75.31,broken clouds,3.1191,35.5973,Solmar Gracious Hotel
350,Saldanha,ZA,55.08,clear sky,-33.0117,17.9442,Blue Bay Lodge
351,Ocampo,MX,64.06,overcast clouds,21.65,-101.5,Hotel Estancia del Vaquero
353,Pangnirtung,CA,46.78,broken clouds,66.1451,-65.7125,Kilabuk Lodge
355,Mayumba,GA,70.38,overcast clouds,-3.432,10.6554,LIKWALE LODGE
356,Ozinki,RU,65.75,clear sky,51.1786,49.6769,Korolevskiy Dvor
357,Waw,SS,68.41,overcast clouds,7.7029,27.9953,Universal Gab Hotel
358,Ketchikan,US,60.78,light rain,55.3422,-131.6461,Snow's Cove Lodge
359,Calabozo,VE,73.78,broken clouds,8.9242,-67.4293,Hotel Giardini
360,Menongue,AO,53.65,broken clouds,-14.6585,17.691,Ritz Lauca
361,Pacific Grove,US,75.24,broken clouds,36.6177,-121.9166,Lovers Point Inn
363,Tocopilla,CL,59.02,few clouds,-22.092,-70.1979,Hotel Galvarino
365,Cheremukhovo,RU,57.72,clear sky,60.3484,59.9851,
367,Marsaxlokk,MT,77.61,clear sky,35.8419,14.5431,Water's Edge
368,Antofagasta,CL,58.28,scattered clouds,-23.65,-70.4,"Holiday Inn Express Antofagasta, an IHG Hotel"
369,San Quintin,MX,72.12,overcast clouds,30.4833,-115.95,Don Eddie's / Hotel - Restaurant
370,Ilebo,CD,72.97,overcast clouds,-4.3167,20.5833,Hôtel BUMAK
371,Varena,LT,55.67,broken clouds,54.2167,24.5667,"EKORATAS, UAB viešbutis Varėna"
373,Mogadishu,SO,75.78,broken clouds,2.0371,45.3438,Hotel Juba
376,Ayan,RU,56.55,overcast clouds,56.45,138.1667,Gostinitsa
378,Mitrofanovka,RU,64.9,overcast clouds,49.9708,39.6939,
379,Faya,SA,59.52,broken clouds,18.3851,42.4509,املاك خالد الشعشوع
380,Nefteyugansk,RU,61.97,few clouds,61.0998,72.6035,Royal Plaza
381,Margate,GB,64.9,few clouds,51.3813,1.3862,Premier Inn Margate hotel
382,Bonnyville,CA,55.31,overcast clouds,54.2668,-110.735,Best Western Bonnyville Inn & Suites
385,Orocue,CO,72.18,light rain,4.7912,-71.3354,Hotel Brisas de San Miguel
386,Saint-Joseph,RE,64.2,light rain,-21.3667,55.6167,"""Plantation Bed and Breakfast"
387,Launceston,AU,55.62,broken clouds,-41.45,147.1667,Hotel Grand Chancellor Launceston
388,Yumen,CN,75.54,clear sky,40.2833,97.2,
389,Prince Rupert,CA,55.49,overcast clouds,54.3161,-130.3201,Crest Hotel
390,Pangody,RU,61.83,few clouds,65.85,74.4859,Elizaveta Shevchuk's House
392,Vostok,RU,77.81,few clouds,46.4856,135.8833,
393,Bilibino,RU,55.56,light rain,68.0546,166.4372,Gostinitsa Severyanka
395,Geraldton,AU,61.21,broken clouds,-28.7667,114.6,Broadwater Mariner Resort
396,Rovaniemi,FI,54.81,overcast clouds,66.5,25.7167,Arctic City Hotel
397,Jardim,BR,72.18,clear sky,-21.4803,-56.1381,Estancia Hotel - Jardim MS
400,Praia,CV,77.54,few clouds,14.9215,-23.5087,LT Aparthotel
401,Abalak,RU,58.59,scattered clouds,58.1286,68.5944,Туристический комплекс Абалак
403,Fare,PF,78.35,scattered clouds,-16.7,-151.0167,Maitai Lapita Village Huahine
404,Inirida,CO,71.02,broken clouds,3.8653,-67.9239,Fuente del Guania Hotel de Lujo
405,Sisimiut,GL,42.96,broken clouds,66.9395,-53.6735,Hotel Sisimiut
406,Bonthe,SL,74.82,broken clouds,7.5264,-12.505,Bonthe Holiday Village
407,Umarga,IN,77.13,overcast clouds,17.8333,76.6167,Keshar amruttuly
408,Mirnyy,RU,73.92,overcast clouds,62.5353,113.9611,квартира
409,Praya,CV,77.54,few clouds,14.9215,-23.5087,LT Aparthotel
410,Syracuse,IT,77.32,clear sky,37.0881,15.2792,Hotel Posta
411,Broome,US,68.38,clear sky,42.2506,-75.833,Chenango Valley State Park
415,Winnipeg,CA,78.04,clear sky,49.8844,-97.147,"Humphry Inn & Suites, Downtown Winnipeg"
416,Zhob,PK,75.81,scattered clouds,31.3411,69.4481,ROOM # 105 DUBAI HOTEL ZHOB
418,Ereymentau,KZ,63.66,broken clouds,51.6199,73.1033,"Gostinitsa ""Dostyk"""
419,Santiago De Chuco,PE,51.39,scattered clouds,-8.15,-78.1833,Hotel El Mirador Santiago de Chuco
420,Les Escoumins,CA,55.85,few clouds,48.1111,-69.0236,
421,Tautira,PF,77.27,few clouds,-17.7333,-149.15,Pension Oaoa
423,Olinda,BR,73.13,overcast clouds,-8.0089,-34.8553,Flat Quatro Rodas Olinda
425,Saravena,CO,71.38,overcast clouds,6.9538,-71.8752,Hotel Diamante Saravena
429,Termiz,UZ,71.69,clear sky,37.2242,67.2783,Hotel Sharq
430,Brae,GB,55.99,overcast clouds,60.3964,-1.353,Busta House Hotel
431,Xining,CN,71.62,few clouds,36.6167,101.7667,Super Leisure Hotel
432,Camopi,GF,72.18,overcast clouds,3.1655,-52.3158,La pousada
433,Taltal,CL,55.67,clear sky,-25.4,-70.4833,Residencial Karime
434,Burnie,AU,56.91,overcast clouds,-41.0667,145.9167,Beachfront Voyager Motor Inn
436,Maksatikha,RU,57.7,overcast clouds,57.797,35.8825,"Hotel ""Mologa"""
437,Gisborne,NZ,60.53,overcast clouds,-38.6533,178.0042,ASURE Alfresco Motor Lodge
439,Ofaqim,IL,71.71,clear sky,31.3141,34.6203,The Negev Experience
440,Bubaque,GW,79.45,light rain,11.2833,-15.8333,"Casa Dora, Bubaque"
441,Saint-Paul,RE,65.73,clear sky,-21.0096,55.2707,Boucan Canot
442,Watrous,CA,58.41,overcast clouds,51.6668,-105.4679,Manitou Hotel
443,Kloulklubed,PW,77.5,overcast clouds,7.0419,134.2556,Storyboard Beach Resort
444,Polyarnyy,RU,57.4,overcast clouds,69.1989,33.4478,Hotel Tatyana
445,Sarkand,KZ,78.42,overcast clouds,45.41,79.9186,Гостиница Сарканд
446,Bumba,CD,73.72,overcast clouds,2.1833,22.4667,Père Carlos
447,Svetlaya,RU,66.74,moderate rain,46.5389,138.3297,
448,Filingue,NE,79.16,overcast clouds,14.3521,3.3168,
449,Graaff-Reinet,ZA,54.91,overcast clouds,-32.2522,24.5308,Rietjiesbos Self Catering
451,Svetlyy,RU,54.97,overcast clouds,54.675,20.1347,"Gostinitsa-Kafe, Alena"
452,Yurga,RU,59.56,few clouds,55.7231,84.8861,Gostinitsa 12 Futov
453,Muros,ES,70.09,few clouds,42.7762,-9.0603,Apartment Av. Castelao
455,Pitimbu,BR,73.99,broken clouds,-7.4706,-34.8086,Reserva do Abiaí
457,Kitgum,UG,60.64,broken clouds,3.2783,32.8867,Jaflo Gardens Hotel
458,Yulara,AU,77.52,clear sky,-25.2406,130.9889,Desert Gardens Hotel - Ayers Rock Resort
459,Bengkulu,ID,76.96,overcast clouds,-3.8004,102.2655,Grage Hotel Bengkulu
460,Denpasar,ID,78.46,scattered clouds,-8.65,115.2167,OYO 3156 Hotel Warta 2
461,Talnakh,RU,51.21,few clouds,69.4865,88.3972,Talnakh Hotel
462,Koungou,YT,73.11,few clouds,-12.7336,45.2042,Villa Netibor
463,Skibbereen,IE,61.11,scattered clouds,51.55,-9.2667,The West Cork Hotel
465,Abay,KZ,61.18,broken clouds,49.6311,72.8539,Guest House on Abaya 144
466,Toora-Khem,RU,64.35,overcast clouds,52.4675,96.11,
470,Nurota,UZ,79.52,clear sky,40.5614,65.6886,Guest House Ruslan Nurata & Tours
471,Aripuana,BR,78.21,overcast clouds,-9.1667,-60.6333,
472,Uchaly,RU,52.5,overcast clouds,54.2996,59.4521,"Хостел ""Четыре сезона"""
473,Pafos,CY,74.98,overcast clouds,34.7667,32.4167,Elysium Hotel
474,Preobrazheniye,RU,77.04,scattered clouds,42.9019,133.9064,Campsite Orlan
475,Vilhena,BR,72.99,broken clouds,-12.7406,-60.1458,Hotel Mirage
476,Santa Lucia,ES,66.76,few clouds,27.9117,-15.5407,Las Tirajanas
477,Weligama,LK,77.32,overcast clouds,5.9667,80.4167,Weligama Bay Resort
478,Hambantota,LK,78.55,overcast clouds,6.1241,81.1185,Bungalow 63
479,Vila,PT,59.7,clear sky,42.0304,-8.1588,Hotel Castrum Villae by Walk Hotels
480,Vestmanna,FO,47.32,overcast clouds,62.1564,-7.1664,Vestmanna Camping
481,Rock Springs,US,75.04,overcast clouds,41.5875,-109.2029,Homewood Suites by Hilton Rock Springs
482,Zatoka,UA,68.14,clear sky,46.0725,30.4654,Sonyachna
483,Peleduy,RU,79.38,overcast clouds,59.6289,112.7406,Гостиница «Уют»
484,Semirom,IR,66.76,clear sky,31.4167,51.5667,Motel Dena
485,Bambui,BR,68.05,few clouds,-20.0064,-45.9769,Paulinelli Palace Hotel
486,Guerrero Negro,MX,73.44,scattered clouds,27.9769,-114.0611,"Casa Laguna, Bed & Breakfast"
487,Darnah,LY,78.48,clear sky,32.767,22.6367,فندق الفردوس
488,Salalah,OM,75.29,drizzle,17.0151,54.0924,"HAMDAN PLAZA HOTEL SALALAH, an HTG Hotel"
493,Havre-Saint-Pierre,CA,62.96,overcast clouds,50.2334,-63.5986,Auberge Niapiskau
494,Oleksandrivka,UA,63.01,overcast clouds,48.9634,32.2349,Смт олександрівка
496,Liverpool,GB,68.14,broken clouds,53.4106,-2.9779,Premier Inn Liverpool City Centre (Moorfields) hotel
497,Plettenberg Bay,ZA,58.95,few clouds,-34.0527,23.3716,Thanda Vista B&B
498,Lacombe,CA,65.32,clear sky,52.4668,-113.7353,Greenway Inn Travelodge
499,Les Cayes,HT,77.97,few clouds,18.2,-73.75,Villa Orphee
500,Trairi,BR,77.95,few clouds,-3.2778,-39.2689,janelas do mar
502,Nome,US,67.15,clear sky,64.5011,-165.4064,Dredge 7 Inn
503,Hualmay,PE,61.43,scattered clouds,-11.0964,-77.6139,Hotel Villa Kitzia Huacho
504,Nortelandia,BR,73.47,clear sky,-14.4547,-56.8028,Pousada e Restaurante Santana
505,Pontes E Lacerda,BR,75.42,clear sky,-15.2261,-59.3353,Hotel Bressan
507,Moengo,SR,73.54,overcast clouds,5.6167,-54.4,Masanga
509,Lekoni,GA,74.12,scattered clouds,-1.5843,14.2591,Rendez-vous Des ChasseursD
511,Puerto Narino,CO,73.51,overcast clouds,-3.7703,-70.3831,Eware Refugio Amazonico
512,Ismailia,EG,73.29,clear sky,30.6043,32.2723,Mercure Ismailia Forsan Island Hotel
513,Husavik,IS,45.14,overcast clouds,66.0449,-17.3389,Bjarnabúð
515,Uglegorsk,RU,65.62,overcast clouds,49.0833,142.0333,Primorskaya Gostinitsa
517,Cloquet,US,68.38,broken clouds,46.7216,-92.4594,Super 8 by Wyndham Cloquet
518,Mnogovershinnyy,RU,59.25,light rain,53.9353,139.9242,Obshchezhitiye 14
519,Baiyin,CN,74.21,clear sky,36.5583,104.2081,GreenTree Alliance Gansu Baiyin Renmin Road Hotel
521,Whitehorse,CA,57.02,overcast clouds,60.7161,-135.0538,The Sternwheeler Hotel & Conference Centre
523,Nucet,RO,66.88,clear sky,44.7833,25.55,CASA PATRULEI
525,Georgiyevka,KZ,68.04,scattered clouds,43.0369,74.7114,Gostinitsa Imperiya
526,Chara,RU,74.97,broken clouds,56.9064,118.2631,
528,Harper,LR,74.88,overcast clouds,4.375,-7.7169,Screensaver
529,Sorland,NO,53.46,overcast clouds,67.667,12.6934,Sjybrygga fiskecamp
530,Revda,RU,54.97,clear sky,56.801,59.9303,Gostinitsa Metallurg
531,Barsovo,RU,64.02,few clouds,61.1667,73.1667,Dipanjan Goswami
532,Moussoro,TD,78.12,broken clouds,13.6408,16.4901,Pharmacie alnadja Moussoro
534,Nuuk,GL,48.81,overcast clouds,64.1835,-51.7216,Vandrehuset
536,Paita,PE,64.49,clear sky,-5.0892,-81.1144,Hotel Náutico de Paita
537,Karla,EE,55.36,clear sky,59.3723,24.9275,River Villa
538,Blind River,CA,62.71,clear sky,46.1834,-82.9582,Auberge Eldo Inn
539,General Roca,AR,46.78,clear sky,-39.0333,-67.5833,Hotel El Recreo
540,Nhamunda,BR,77.16,overcast clouds,-2.1861,-56.7131,Pousada Da Praia
541,Yaan,NG,70.97,overcast clouds,7.3833,8.5667,
542,Bom Jesus,BR,68.97,broken clouds,-9.0744,-44.3586,Hotel Brasão & Floricultura Bella Flor
543,Dedovichi,RU,54.25,overcast clouds,57.5517,29.9502,"The hotel complex ""Rus"""
544,Krasnoselkup,RU,54.7,few clouds,65.7,82.4667,Krasnosel'kupnefteprodukt
545,Mao,ES,75.76,clear sky,39.8885,4.2658,ARTIEM Capri
546,Lubango,AO,50.52,broken clouds,-14.9172,13.4925,Hotel Serra da Chela
547,Novikovo,RU,63.54,broken clouds,51.1537,37.8879,
548,Agadir,MA,68.45,scattered clouds,30.4202,-9.5982,Iberostar Founty Beach
549,Vana-Vigala,EE,57.13,light rain,58.7806,24.2522,"Hostel ""Hirvepark"""
550,Laranjeiro,PT,69.4,clear sky,37.0683,-7.7937,Vila Monte Farm House
551,Byron Bay,AU,71.94,broken clouds,-28.65,153.6167,Backpackers Inn
554,Muzhi,RU,63.5,scattered clouds,65.3667,64.6667,Gostinitsa
555,Santiago Del Estero,AR,68.54,overcast clouds,-27.7951,-64.2615,Apartamentos Castelli 90
556,Aklavik,CA,53.46,overcast clouds,68.2191,-135.0107,Aklavik Inn
558,Roebourne,AU,70.95,clear sky,-20.7833,117.1333,Latitude20 Roebourne Village
560,Qaqortoq,GL,44.98,few clouds,60.7167,-46.0333,Siniffik Inn
561,Kabo,CF,68.47,light rain,7.6994,18.629,
562,Pisco,PE,60.03,mist,-13.7,-76.2167,Hotel San Isidro Oficial
563,Batagay-Alyta,RU,47.97,overcast clouds,67.8006,130.4114,
564,Khani,GE,65.77,scattered clouds,41.9563,42.9566,კურორტი ზეკარი/Resort Zekari
565,Cidreira,BR,60.69,overcast clouds,-30.1811,-50.2056,Hotel Castelo
566,Penzance,GB,65.08,overcast clouds,50.1186,-5.5371,Artist Residence Penzance
567,Chapais,CA,56.98,clear sky,49.7834,-74.8492,Hôtel Opémiska
569,Anchorage,US,66.13,overcast clouds,61.2181,-149.9003,Hotel Captain Cook
570,Joshimath,IN,72.84,broken clouds,30.5667,79.5667,Shivalik Camps & Resort
571,Kabarnet,KE,49.57,clear sky,0.4919,35.743,Valley-Inn Hotel
574,Jucuaran,SV,73.08,overcast clouds,13.2539,-88.2478,Hostal Doña Consuelo
576,Yerbogachen,RU,64.49,light rain,61.2767,108.0108,
578,Sayat,TM,78.67,clear sky,38.7839,63.8803,
581,Envira,BR,76.71,broken clouds,-7.3,-70.2167,
584,Pergamino,AR,54.57,scattered clouds,-33.89,-60.5736,Hotel Fachinat
585,Acarau,BR,77.67,clear sky,-2.8856,-40.12,castelo pizzaria
586,La Rioja,ES,64.18,few clouds,42.25,-2.5,Casa Concejos
587,Birao,CF,69.78,light rain,10.2849,22.7882,
589,Pajan,EC,69.03,clear sky,-1.5667,-80.4167,Cecadel
590,Andenes,NO,51.93,overcast clouds,69.3143,16.1194,Hotell Marena
591,El Alto,PE,63.68,broken clouds,-4.2714,-81.2147,Black Marlin Restaurant & Hospedaje
594,Beringovskiy,RU,58.82,scattered clouds,63.05,179.3167,
595,Akdepe,TM,71.69,clear sky,42.0551,59.3788,
596,Bashtanka,UA,63.9,overcast clouds,47.4072,32.4387,Свято Успенський храм ПЦУ
597,Chulym,RU,59.63,clear sky,55.0997,80.9572,"""U Tat'yany"""
598,Abu Samrah,SY,74.79,clear sky,35.3029,37.1841,
599,Bud,US,75.18,clear sky,39.447,-86.1758,Ted McQuinn Trust
600,Yangambi,CD,70.03,few clouds,0.8102,24.4336,
602,Uppsala,SE,58.51,overcast clouds,60.0,17.75,Frösunda LSS AB Eget Boende Jan Eriks Väg
604,Mackay,AU,78.67,clear sky,-21.15,149.2,International Lodge Motel
606,Zorritos,PE,70.09,scattered clouds,-3.6805,-80.6782,Hotel Pinamar
607,Colares,PT,68.76,overcast clouds,38.7992,-9.4469,Arribas Sintra Hotel
608,Ithaca,US,69.89,clear sky,42.4406,-76.4966,Meadow Court Inn
609,Pershotravneve,UA,61.72,overcast clouds,51.3929,28.8684,Kempinh
610,Ucluelet,CA,60.1,scattered clouds,48.9329,-125.5528,Black Rock Oceanfront Resort
611,Maralal,KE,53.56,clear sky,1.0968,36.698,Ngari Hill Ecolodge
612,Moose Factory,CA,66.2,haze,51.2585,-80.6094,Cree Village Eco Lodge
613,Mpanda,TZ,63.88,scattered clouds,-6.3655,31.0409,CH Hotel - Mpanda
615,Joao Camara,BR,70.7,few clouds,-5.5375,-35.8197,Pousada Miguel Teixeira
619,Halifax,CA,71.49,overcast clouds,44.6453,-63.5724,Hotel Halifax
620,Silver City,US,76.96,clear sky,32.7701,-108.2803,Copper Manor Motel
621,Banes,CU,79.32,clear sky,20.9625,-75.7186,Hostal Iván y yailet
623,Pacifica,US,78.15,broken clouds,37.6138,-122.4869,"Pacifica Lighthouse, Trademark Collection by Wyndham"
626,Elsdorf,DE,69.71,broken clouds,50.9374,6.5683,Feierabend Elsdorf
628,Puerto Lempira,HN,79.93,overcast clouds,15.2667,-83.7667,Puerto Lempira gracias a Dios
629,Mwinilunga,ZM,57.04,overcast clouds,-11.7358,24.4293,Kwakuwahi Lodge
631,Los Reyes,MX,64.15,scattered clouds,19.35,-98.9667,Hotel Los Reyes La Paz
632,Ekhabi,RU,56.62,overcast clouds,53.5102,142.9671,
634,Santa Marta,CO,78.85,scattered clouds,11.2408,-74.199,Hotel La Ballena Azul
636,Batemans Bay,AU,62.1,overcast clouds,-35.7167,150.1833,Batemans Bay Marina Resort
637,Namtsy,RU,69.12,overcast clouds,62.7161,129.6658,"""Эңсиэли Киин"""
639,Betanzos,ES,70.11,overcast clouds,43.2804,-8.2147,Hotel Garelos Betanzos
640,Slave Lake,CA,64.38,clear sky,55.2834,-114.769,Super 8 by Wyndham Slave Lake AB
641,Canico,PT,73.0,few clouds,32.6333,-16.85,Quinta Splendida Wellness & Botanical Garden
644,Hokitika,NZ,54.25,clear sky,-42.7167,170.9667,Beachfront Hotel Hokitika
645,Iracoubo,GF,77.74,moderate rain,5.4802,-53.2011,Le Gîte d’Iracoubo
648,Cururupu,BR,74.25,clear sky,-1.8283,-44.8683,POUSADA TRAVÉS'CIA
649,Ugento,IT,76.5,clear sky,39.9263,18.1574,Porta Paradiso
651,Beloha,MG,60.96,clear sky,-25.1667,45.05,
652,Kangaatsiaq,GL,42.03,overcast clouds,68.3065,-53.4641,Nukissiorfiit
653,Aleksandrovka,UA,63.27,clear sky,46.8383,32.7612,
655,Ndjole,GA,70.65,broken clouds,-0.1783,10.7649,Motel Kédyann
656,Paamiut,GL,44.22,overcast clouds,61.994,-49.6678,Pistut
657,Ovalle,CL,53.37,clear sky,-30.5983,-71.2003,Hotel Altos de Tuqui
658,Bereda,ES,68.41,overcast clouds,43.2686,-7.5406,Pazo de Verdes
659,Kungurtug,RU,62.51,overcast clouds,50.5994,97.5228,
660,Mitsamiouli,KM,74.57,clear sky,-11.3847,43.2844,Foyer ADM
661,Myitkyina,MM,78.58,overcast clouds,25.3833,97.4,Shwe Phyu Hotel
664,Plock,PL,60.82,overcast clouds,52.5468,19.7064,HERMAN
665,Ulladulla,AU,69.03,scattered clouds,-35.35,150.4667,Sandpiper Motel
666,Ostrovnoy,RU,53.78,moderate rain,68.0531,39.5131,
667,Ylojarvi,FI,52.95,clear sky,61.5563,23.5961,Hotel Lamminpää
669,Shaunavon,CA,70.66,clear sky,49.6501,-108.4181,Bear's Den Lodge
671,Bonfim,BR,76.62,overcast clouds,3.0833,-59.95,
672,Cooma,AU,55.17,broken clouds,-36.2333,149.1333,High Country Motel
673,Cardston,CA,78.89,broken clouds,49.2,-113.3019,Flamingo Motel
675,Kristiansund,NO,59.65,light rain,63.1115,7.732,Thon Hotels Storgata
676,Kyabe,TD,70.29,overcast clouds,9.4515,18.9449,
